{"1423160545.24": {"school": {"wiki": "http://en.wikipedia.org/wiki/Abilene_Christian_University", "established": "1906", "contact": {"url": "www.acu.edu", "phone": "9156742000"}, "names": {"nickname plural": "Wildcats"}, "endowment": "$300 million", "location": {"postalcode": "79699-9100", "city": "Abilene", "address 1": "ACU Box 29100", "region": "TX"}, "mascot": "Willie the Wildcat"}, "id:": "1423160545.24", "name": "Abilene Christian University", "images": {"university": {"raw_logo": "http://upload.wikimedia.org/wikipedia/en/3/36/AcuSeal.png"}}, "colors": {"primary": "#800080", "secondary": "#ffffff"}, "athletics": {"conference": "NCAA Division I - Southland"}, "alumni": {"contact": {"url": "www.acu.edu", "phone": "9156742000"}, "location": {"postalcode": "79699-9100", "city": "Abilene", "address 1": "ACU Box 29100", "region": "TX"}}},"1423160545.59": {"school": {"wiki": "http://en.wikipedia.org/wiki/Academy_of_Art_University", "established": "1929", "contact": {"url": "www.academyart.edu"}, "motto": {"latin": "Built by artists for artists"}}, "id:": "1423160545.59", "name": "Academy of Art University", "images": {"university": {"raw_logo": "http://upload.wikimedia.org/wikipedia/en/thumb/f/f1/AcademyArtUnivLogo.png/290px-AcademyArtUnivLogo.png"}}, "colors": {"primary": "#000000", "secondary": "#ff0000"}, "athletics": {"conference": "NCAA Division II for cross country, soccer, volleyball, basketball, baseball, softball, golf, tennis, track and field"}, "alumni": {"contact": {"url": "www.academyart.edu"}}, "enrollment": {"postgraduate": "6070", "undergraduate": "11,992"}},"1423160545.88": {"school": {"wiki": "http://en.wikipedia.org/wiki/Adams_State_University", "established": "1921", "contact": {"url": "www.adams.edu"}, "names": {"nickname plural": "Grizzlies"}, "motto": {"latin": "Great stories begin here."}, "mascot": "Grizzly bear"}, "id:": "1423160545.88", "name": "Adams State University", "images": {"university": {"raw_logo": "http://upload.wikimedia.org/wikipedia/en/f/f6/Adams_State_University_Logo.jpg"}}, "alumni": {"contact": {"url": "www.adams.edu"}}},"1423160546.29": {"school": {"wiki": "http://en.wikipedia.org/wiki/Adelphi_University", "established": "June 24, 1896", "contact": {"url": "www.adelphi.edu", "phone": "5168773000"}, "names": {"nickname plural": "Panthers"}, "motto": {"latin": "VITA SINE LITTERIS MORS EST, (from Epistulae morales ad Lucilium by Seneca the Younger)", "english": "Literal translation: \"Life without learning is death\", \"The Truth Shall Make Us Free\""}, "endowment": "$86 million", "location": {"postalcode": "11530", "city": "Garden City", "address 1": "South Avenue", "region": "NY"}, "mascot": "Panther"}, "id:": "1423160546.29", "name": "Adelphi University", "images": {"university": {"raw_logo": "http://upload.wikimedia.org/wikipedia/en/thumb/c/c1/Adelphi_University_Seal.svg/200px-Adelphi_University_Seal.svg.png"}}, "colors": {"primary": "#591F00", "secondary": "#FDB813"}, "athletics": {"conference": "NCAA Division II - NE-10"}, "alumni": {"contact": {"url": "www.adelphi.edu", "phone": "5168773000"}, "location": {"postalcode": "11530", "city": "Garden City", "address 1": "South Avenue", "region": "NY"}}, "enrollment": {"postgraduate": "2,756 ", "undergraduate": "5,103 "}},"1423160546.54": {"school": {"wiki": "http://en.wikipedia.org/wiki/Adrian_College", "established": "1859", "contact": {"url": "www.adrian.edu", "phone": "5172655161"}, "names": {"nickname plural": "Bulldogs"}, "endowment": "$37.8 million", "location": {"postalcode": "49221-2575", "city": "Adrian", "address 1": "110 South Madison St.", "region": "MI"}, "mascot": "Bruiser"}, "id:": "1423160546.54", "name": "Adrian College", "images": {"university": {"raw_logo": "http://upload.wikimedia.org/wikipedia/commons/thumb/f/f5/Herrick_Tower_Adrian_College.JPG/225px-Herrick_Tower_Adrian_College.JPG"}}, "colors": {"primary": "#000000", "secondary": "#D4AF37"}, "alumni": {"contact": {"url": "www.adrian.edu", "phone": "5172655161"}, "location": {"postalcode": "49221-2575", "city": "Adrian", "address 1": "110 South Madison St.",