{"1423157105.94": {"school": {"wiki": "http://en.wikipedia.org/wiki/University_of_Akron", "established": "1870", "contact": {"url": "www.uakron.edu"}, "motto": {"latin": "Fiat Lux ", "english": "Let there be light"}, "mascot": "Zippy the Kangaroo", "names": {"nickname plural": "Zips"}}, "id:": "1423157105.94", "name": "University of Akron", "images": {"university": {"raw_logo": "http://upload.wikimedia.org/wikipedia/en/thumb/c/cd/UAkron_Seal.svg/200px-UAkron_Seal.svg.png"}}, "colors": {"primary": "#00285e", "secondary": "#deb408"}, "athletics": {"conference": "NCAA Division I FBS - MAC"}, "alumni": {"contact": {"url": "www.uakron.edu"}}, "enrollment": {"postgraduate": "3,975", "undergraduate": "22,619"}},"1423157106.39": {"school": {"wiki": "http://en.wikipedia.org/wiki/Alabama_State_University", "established": "1867", "contact": {"url": "www.alasu.edu", "phone": "8002535037"}, "location": {"postalcode": "36101-0271", "city": "Montgomery", "address 1": "915 South Jackson Street", "region": "AL"}, "motto": {"latin": "\"Opportunity is Here.\""}, "names": {"nickname plural": "Hornets and Lady Hornets"}}, "id:": "1423157106.39", "name": "Alabama State University", "images": {"university": {"raw_logo": "http://upload.wikimedia.org/wikipedia/en/1/18/AlStateU_seal.png"}}, "colors": {"primary": "#000000", "secondary": "#ffd700"}, "athletics": {"conference": "NCAA Division I FCS - SWAC"}, "alumni": {"contact": {"url": "www.alasu.edu", "phone": "8002535037"}, "location": {"postalcode": "36101-0271", "city": "Montgomery", "address 1": "915 South Jackson Street", "region": "AL"}}, "enrollment": {"postgraduate": "3,400", "undergraduate": "7,800"}},"1423157128.13": {"school": {"wiki": "http://en.wikipedia.org/wiki/Albany_State_University", "established": "1903", "contact": {"url": "www.asurams.edu", "phone": "2294304600"}, "location": {"postalcode": "31705-2717", "city": "Albany", "address 1": "504 College Drive", "region": "GA"}, "motto": {"latin": "A Past To Cherish, A Future To Fulfill, Potential. Realized."}, "names": {"nickname plural": "Golden Rams"}}, "id:": "1423157128.13", "name": "Albany State University", "images": {"university": {"raw_logo": "http://upload.wikimedia.org/wikipedia/en/thumb/1/10/Albany_State_University_Academic_Seal.jpg/125px-Albany_State_University_Academic_Seal.jpg"}}, "colors": {"primary": "#0000ff", "secondary": "#ffd700"}, "athletics": {"conference": "NCAA Division II"}, "alumni": {"contact": {"url": "www.asurams.edu", "phone": "2294304600"}, "location": {"postalcode": "31705-2717", "city": "Albany", "address 1": "504 College Drive", "region": "GA"}}, "enrollment": {"postgraduate": "424", "undergraduate": "3,714"}},"1423157128.56": {"school": {"wiki": "http://en.wikipedia.org/wiki/Alderson_Broaddus_University", "established": "1871", "contact": {"url": "www.ab.edu"}, "motto": {"latin": "\"Learning to Succeed, Learning to Serve\""}, "mascot": "Skirmish", "names": {"nickname plural": "Battlers"}}, "id:": "1423157128.56", "name": "Alderson Broaddus University", "images": {"university": {"raw_logo": "http://upload.wikimedia.org/wikipedia/en/3/3c/Alderson_Broaddus_University_seal.png"}}, "athletics": {"conference": "22 NCAA Division II"}, "alumni": {"contact": {"url": "www.ab.edu"}}},"1423157132.29": {"school": {"wiki": "http://en.wikipedia.org/wiki/Amherst_College", "established": "1821", "contact": {"url": "amherst.edu", "phone": "4135422000"}, "location": {"postalcode": "01002-5000", "city": "Amherst", "address 1": "P.O.Box 5000", "region": "MA"}, "motto": {"latin": "Terras Irradient ", "english": "Let them give light to the world"}}, "id:": "1423157132.29", "name": "Amherst College", "images": {"university": {"raw_logo": "http://upload.wikimedia.org/wikipedia/en/thumb/c/c2/Amherst_College_Seal.png/220px-Amherst_College_Seal.png"}}, "colors": {"primary": "#6d28aa", "secondary": "#ffffff"}, "athletics": {"conference": "NCAA Division III - NESCAC"}, "alumni": {"contact": {"url": "amherst.edu", "phone": "4135422000"}, "location": {"postalcode": "01002-5000", "city": "Amherst", "address 1": "P.O.Box 5000", "r